{
    "_id" : "050509502",
    "last_updated" : "2017-06-11T01:20:55.196Z",
    "last_updated_irs" : "2017-03-11T03:54:49.000Z",
    "ein" : "050509502",
    "organization_name" : "WHITE FAMILY FOUNDATION",
    "assets" : 2013194.0,
    "website" : "http://www.thewhitefamilyfoundation.com",
    "city" : "Cranston",
    "state" : "RI",
    "is_likely_staffed" : false,
    "has_website" : true,
    "has_grants" : true,
    "has_recent_grants" : true,
    "grant_max" : 250000.0,
    "grant_min" : 5000.0,
    "grant_median" : 17900.0,
    "grant_count" : 10.0,
    "filings" : [ 
        {
            "object_id_irs" : "201613139349100231",
            "tax_period" : 201512.0,
            "tax_year" : 2015.0,
            "url" : "https://s3.amazonaws.com/irs-form-990/201613139349100231_public.xml"
        }
    ],
    "grants" : [ 
        {
            "name" : "Community Preparatory School",
            "city" : "Providence",
            "state" : "RI",
            "amount" : 15800.0,
            "purpose" : "Education"
        }, 
        {
            "name" : "FirstWorks Providence",
            "city" : "Providence",
            "state" : "RI",
            "amount" : 15000.0,
            "purpose" : "Culture"
        }, 
        {
            "name" : "House of Hope",
            "city" : "North Kingstown",
            "state" : "RI",
            "amount" : 5000.0,
            "purpose" : "Recovery"
        }, 
        {
            "name" : "Project Goal",
            "city" : "Providence",
            "state" : "RI",
            "amount" : 12500.0,
            "purpose" : "Sports, Youth, Education"
        }, 
        {
            "name" : "Providence Performing Arts Center",
            "city" : "Kingston",
            "state" : "RI",
            "amount" : 250000.0,
            "purpose" : "culture"
        }, 
        {
            "name" : "RI Free Clinic",
            "city" : "Providence",
            "state" : "RI",
            "amount" : 11000.0,
            "purpose" : "Health"
        }, 
        {
            "name" : "St Andrews School",
            "city" : "Barrington",
            "state" : "RI",
            "amount" : 20000.0,
            "purpose" : "Education"
        }, 
        {
            "name" : "Trinity Repertory Company",
            "city" : "Providence",
            "state" : "RI",
            "amount" : 25000.0,
            "purpose" : "arts"
        }, 
        {
            "name" : "Wheaton College",
            "city" : "Norton",
            "state" : "MA",
            "amount" : 100000.0,
            "purpose" : "science center"
        }, 
        {
            "name" : "Various others",
            "city" : "Providence",
            "state" : "RI",
            "amount" : 58100.0,
            "purpose" : "various"
        }
    ],
    "people" : [ 
        {
            "name" : "JOHN HAZEN WHITE JR",
            "title" : "Board Member",
            "hours" : 3.0,
            "compensation" : 0.0
        }, 
        {
            "name" : "DAVID GILDEN",
            "title" : "Board member",
            "hours" : 2.0,
            "compensation" : 0.0
        }, 
        {
            "name" : "GLENN GRAHAM",
            "title" : "Treasurer",
            "hours" : 3.0,
            "compensation" : 0.0
        }, 
        {
            "name" : "MARJORIE HOUSTON",
            "title" : "President",
            "hours" : 4.0,
            "compensation" : 0.0
        }, 
        {
            "name" : "LATAVORN BONILLA",
            "title" : "Secretary",
            "hours" : 2.0,
            "compensation" : 0.0
        }, 
        {
            "name" : "BENJAMIN WHITE",
            "title" : "Board Member",
            "hours" : 1.0,
            "compensation" : 0.0
        }, 
        {
            "name" : "IRVING SCHNEIDER",
            "title" : "Board Member",
            "hours" : 1.0,
            "compensation" : 0.0
        }, 
        {
            "name" : "JOHN WHITE III",
            "title" : "Board member",
            "hours" : 1.0,
            "compensation" : 0.0
        }, 
        {
            "name" : "CHRISTY FUSI",
            "title" : "Board Member",
            "hours" : 1.0,
            "compensation" : 0.0
        }, 
        {
            "name" : "NELSON REGO",
            "title" : "Board member",
            "hours" : 1.0,
            "compensation" : 0.0
        }, 
        {
            "name" : "ELIZABETH WHITE",
            "title" : "Board member",
            "hours" : 1.0,
            "compensation" : 0.0
        }
    ]
}